$GPRMC,011546.807,V,4154.930,N,08202.499,W,93.9,3.22,050318,,E*46
$GPGGA,011547.807,4154.930,N,08202.499,W,0,00,,,M,,M,,*5A
$GPGLL,4154.930,N,08202.499,W,011548.807,V*35
$GPRMC,011549.807,V,4154.931,N,08202.501,W,72.9,3.28,050318,,E*4D
$GPGGA,011550.807,4154.931,N,08202.501,W,0,00,,,M,,M,,*5D
$GPGLL,4154.931,N,08202.501,W,011551.807,V*3C
$GPRMC,011552.807,V,4154.931,N,08202.502,W,91.8,2.98,050318,,E*42
$GPGGA,011553.807,4154.931,N,08202.502,W,0,00,,,M,,M,,*5D
$GPGLL,4154.931,N,08202.502,W,011554.807,V*3A
$GPRMC,011555.807,V,4154.931,N,08202.504,W,76.3,3.08,050318,,E*49
$GPGGA,011556.807,4154.931,N,08202.504,W,0,00,,,M,,M,,*5E
$GPGLL,4154.931,N,08202.504,W,011557.807,V*3F
$GPRMC,011558.807,V,4154.932,N,08202.506,W,19.6,3.15,050318,,E*45
$GPGGA,011559.807,4154.932,N,08202.506,W,0,00,,,M,,M,,*50
$GPGLL,4154.932,N,08202.506,W,011600.807,V*3F
$GPRMC,011601.807,V,4154.932,N,08202.508,W,78.3,3.11,050318,,E*42
$GPGGA,011602.807,4154.932,N,08202.508,W,0,00,,,M,,M,,*53
$GPGLL,4154.932,N,08202.508,W,011603.807,V*32
$GPRMC,011604.807,V,4154.933,N,08202.509,W,76.2,3.21,050318,,E*4B
$GPGGA,011605.807,4154.933,N,08202.509,W,0,00,,,M,,M,,*54
$GPGLL,4154.933,N,08202.509,W,011606.807,V*37
$GPRMC,011607.807,V,4154.933,N,08202.511,W,27.3,3.14,050318,,E*42
$GPGGA,011608.807,4154.933,N,08202.511,W,0,00,,,M,,M,,*50
$GPGLL,4154.933,N,08202.511,W,011609.807,V*31
$GPRMC,011610.807,V,4154.933,N,08202.513,W,69.1,3.13,050318,,E*49
$GPGGA,011611.807,4154.933,N,08202.513,W,0,00,,,M,,M,,*5A
$GPGLL,4154.933,N,08202.513,W,011612.807,V*39
$GPRMC,011613.807,V,4154.934,N,08202.515,W,30.3,3.20,050318,,E*45
$GPGGA,011614.807,4154.934,N,08202.515,W,0,00,,,M,,M,,*5E
$GPGLL,4154.934,N,08202.515,W,011615.807,V*3F
$GPRMC,011616.807,V,4154.934,N,08202.516,W,50.6,3.18,050318,,E*4B
$GPGGA,011617.807,4154.934,N,08202.516,W,0,00,,,M,,M,,*5E
$GPGLL,4154.934,N,08202.516,W,011618.807,V*31
$GPRMC,011619.807,V,4154.935,N,08202.518,W,24.0,3.28,050318,,E*4D
$GPGGA,011620.807,4154.935,N,08202.518,W,0,00,,,M,,M,,*55
$GPGLL,4154.935,N,08202.518,W,011621.807,V*34
$GPRMC,011622.807,V,4154.935,N,08202.520,W,52.9,3.01,050318,,E*4D
$GPGGA,011623.807,4154.935,N,08202.520,W,0,00,,,M,,M,,*5D
$GPGLL,4154.935,N,08202.520,W,011624.807,V*3A
$GPRMC,011625.807,V,4154.935,N,08202.522,W,49.5,3.12,050318,,E*4C
$GPGGA,011626.807,4154.935,N,08202.522,W,0,00,,,M,,M,,*5A
$GPGLL,4154.935,N,08202.522,W,011627.807,V*3B
$GPRMC,011628.807,V,4154.936,N,08202.523,W,78.2,3.16,050318,,E*42
$GPGGA,011629.807,4154.936,N,08202.523,W,0,00,,,M,,M,,*57
$GPGLL,4154.936,N,08202.523,W,011630.807,V*3F
$GPRMC,011631.807,V,4154.936,N,08202.525,W,54.3,3.08,050318,,E*4C
$GPGGA,011632.807,4154.936,N,08202.525,W,0,00,,,M,,M,,*5B
$GPGLL,4154.936,N,08202.525,W,011633.807,V*3A
$GPRMC,011634.807,V,4154.936,N,08202.527,W,71.9,2.79,050318,,E*41
$GPGGA,011635.807,4154.936,N,08202.527,W,0,00,,,M,,M,,*5E
$GPGLL,4154.936,N,08202.527,W,011636.807,V*3D
$GPRMC,011637.807,V,4154.935,N,08202.528,W,48.7,2.72,050318,,E*41
$GPGGA,011638.807,4154.935,N,08202.528,W,0,00,,,M,,M,,*5F
$GPGLL,4154.935,N,08202.528,W,011639.807,V*3E
$GPRMC,011640.807,V,4154.934,N,08202.530,W,12.5,2.64,050318,,E*43
$GPGGA,011641.807,4154.934,N,08202.530,W,0,00,,,M,,M,,*59
$GPGLL,4154.934,N,08202.530,W,011642.807,V*3A
$GPRMC,011643.807,V,4154.933,N,08202.531,W,92.9,2.65,050318,,E*43
$GPGGA,011644.807,4154.933,N,08202.531,W,0,00,,,M,,M,,*5A
$GPGLL,4154.933,N,08202.531,W,011645.807,V*3B
$GPRMC,011646.807,V,4154.932,N,08202.533,W,5.3,2.58,050318,,E*7F
$GPGGA,011647.807,4154.932,N,08202.533,W,0,00,,,M,,M,,*5A
$GPGLL,4154.932,N,08202.533,W,011648.807,V*35
$GPRMC,011649.807,V,4154.931,N,08202.534,W,12.8,2.68,050318,,E*4A
$GPGGA,011650.807,4154.931,N,08202.534,W,0,00,,,M,,M,,*58
$GPGLL,4154.931,N,08202.534,W,011651.807,V*39
$GPRMC,011652.807,V,4154.930,N,08202.536,W,72.5,2.64,050318,,E*44
$GPGGA,011653.807,4154.930,N,08202.536,W,0,00,,,M,,M,,*58
$GPGLL,4154.930,N,08202.536,W,011654.807,V*3F
$GPRMC,011655.807,V,4154.929,N,08202.538,W,93.4,2.74,050318,,E*4A
$GPGGA,011656.807,4154.929,N,08202.538,W,0,00,,,M,,M,,*5B
$GPGLL,4154.929,N,08202.538,W,011657.807,V*3A
$GPRMC,011658.807,V,4154.928,N,08202.539,W,38.2,2.63,050318,,E*46
$GPGGA,011659.807,4154.928,N,08202.539,W,0,00,,,M,,M,,*54
$GPGLL,4154.928,N,08202.539,W,011700.807,V*39
$GPRMC,011701.807,V,4154.927,N,08202.541,W,46.6,2.69,050318,,E*4C
$GPGGA,011702.807,4154.927,N,08202.541,W,0,00,,,M,,M,,*5B
$GPGLL,4154.927,N,08202.541,W,011703.807,V*3A
$GPRMC,011704.807,V,4154.927,N,08202.542,W,71.7,2.67,050318,,E*41
$GPGGA,011705.807,4154.927,N,08202.542,W,0,00,,,M,,M,,*5F
$GPGLL,4154.927,N,08202.542,W,011706.807,V*3C
$GPRMC,011707.807,V,4154.926,N,08202.544,W,7.9,2.64,050318,,E*79
$GPGGA,011708.807,4154.926,N,08202.544,W,0,00,,,M,,M,,*55
$GPGLL,4154.926,N,08202.544,W,011709.807,V*34
$GPRMC,011710.807,V,4154.924,N,08202.545,W,41.7,2.59,050318,,E*4E
$GPGGA,011711.807,4154.924,N,08202.545,W,0,00,,,M,,M,,*5E
$GPGLL,4154.924,N,08202.545,W,011712.807,V*3D
$GPRMC,011713.807,V,4154.924,N,08202.547,W,23.6,2.68,050318,,E*48
$GPGGA,011714.807,4154.924,N,08202.547,W,0,00,,,M,,M,,*59
$GPGLL,4154.924,N,08202.547,W,011715.807,V*38
$GPRMC,011716.807,V,4154.923,N,08202.548,W,56.4,2.61,050318,,E*4C
$GPGGA,011717.807,4154.923,N,08202.548,W,0,00,,,M,,M,,*52
$GPGLL,4154.923,N,08202.548,W,011718.807,V*3D
$GPRMC,011719.807,V,4154.921,N,08202.550,W,6.0,2.50,050318,,E*7B
$GPGGA,011720.807,4154.921,N,08202.550,W,0,00,,,M,,M,,*5D
$GPGLL,4154.921,N,08202.550,W,011721.807,V*3C
$GPRMC,011722.807,V,4154.921,N,08202.551,W,20.5,2.95,050318,,E*4A
$GPGGA,011723.807,4154.921,N,08202.551,W,0,00,,,M,,M,,*5F
$GPGLL,4154.921,N,08202.551,W,011724.807,V*38
$GPRMC,011725.807,V,4154.921,N,08202.553,W,12.3,2.85,050318,,E*49
$GPGGA,011726.807,4154.921,N,08202.553,W,0,00,,,M,,M,,*58
$GPGLL,4154.921,N,08202.553,W,011727.807,V*39
$GPRMC,011728.807,V,4154.920,N,08202.555,W,53.6,2.75,050318,,E*4C
$GPGGA,011729.807,4154.920,N,08202.555,W,0,00,,,M,,M,,*50
$GPGLL,4154.920,N,08202.555,W,011730.807,V*38
$GPRMC,011731.807,V,4154.920,N,08202.557,W,95.2,2.82,050318,,E*40
$GPGGA,011732.807,4154.920,N,08202.557,W,0,00,,,M,,M,,*58
$GPGLL,4154.920,N,08202.557,W,011733.807,V*39
$GPRMC,011734.807,V,4154.919,N,08202.558,W,98.7,2.82,050318,,E*48
$GPGGA,011735.807,4154.919,N,08202.558,W,0,00,,,M,,M,,*5A
$GPGLL,4154.919,N,08202.558,W,011736.807,V*39
$GPRMC,011737.807,V,4154.918,N,08202.560,W,95.7,2.73,050318,,E*42
$GPGGA,011738.807,4154.918,N,08202.560,W,0,00,,,M,,M,,*5D
$GPGLL,4154.918,N,08202.560,W,011739.807,V*3C
$GPRMC,011740.807,V,4154.918,N,08202.561,W,61.4,2.71,050318,,E*49
$GPGGA,011741.807,4154.918,N,08202.561,W,0,00,,,M,,M,,*52
$GPGLL,4154.918,N,08202.561,W,011742.807,V*31
$GPRMC,011743.807,V,4154.916,N,08202.563,W,9.2,2.61,050318,,E*7F
$GPGGA,011744.807,4154.916,N,08202.563,W,0,00,,,M,,M,,*5B
$GPGLL,4154.916,N,08202.563,W,011745.807,V*3A
$GPRMC,011746.807,V,4154.915,N,08202.564,W,3.3,2.57,050318,,E*70
$GPGGA,011747.807,4154.915,N,08202.564,W,0,00,,,M,,M,,*5C
$GPGLL,4154.915,N,08202.564,W,011748.807,V*33
$GPRMC,011749.807,V,4154.914,N,08202.565,W,72.5,2.33,050318,,E*4D
$GPGGA,011750.807,4154.914,N,08202.565,W,0,00,,,M,,M,,*5A
$GPGLL,4154.914,N,08202.565,W,011751.807,V*3B
$GPRMC,011752.807,V,4154.912,N,08202.566,W,52.9,2.39,050318,,E*46
$GPGGA,011753.807,4154.912,N,08202.566,W,0,00,,,M,,M,,*5C
$GPGLL,4154.912,N,08202.566,W,011754.807,V*3B
$GPRMC,011755.807,V,4154.911,N,08202.567,W,61.9,2.33,050318,,E*49
$GPGGA,011756.807,4154.911,N,08202.567,W,0,00,,,M,,M,,*5B
$GPGLL,4154.911,N,08202.567,W,011757.807,V*3A
$GPRMC,011758.807,V,4154.909,N,08202.568,W,97.9,2.36,050318,,E*4E
$GPGGA,011759.807,4154.909,N,08202.568,W,0,00,,,M,,M,,*52
$GPGLL,4154.909,N,08202.568,W,011800.807,V*31
$GPRMC,011801.807,V,4154.908,N,08202.569,W,84.7,2.40,050318,,E*40
$GPGGA,011802.807,4154.908,N,08202.569,W,0,00,,,M,,M,,*53
$GPGLL,4154.908,N,08202.569,W,011803.807,V*32
$GPRMC,011804.807,V,4154.906,N,08202.570,W,95.3,2.41,050318,,E*46
$GPGGA,011805.807,4154.906,N,08202.570,W,0,00,,,M,,M,,*52
$GPGLL,4154.906,N,08202.570,W,011806.807,V*31
$GPRMC,011807.807,V,4154.905,N,08202.571,W,47.5,2.30,050318,,E*48
$GPGGA,011808.807,4154.905,N,08202.571,W,0,00,,,M,,M,,*5D
$GPGLL,4154.905,N,08202.571,W,011809.807,V*3C
$GPRMC,011810.807,V,4154.903,N,08202.572,W,22.3,2.25,050318,,E*4A
$GPGGA,011811.807,4154.903,N,08202.572,W,0,00,,,M,,M,,*50
$GPGLL,4154.903,N,08202.572,W,011812.807,V*33
$GPRMC,011813.807,V,4154.901,N,08202.572,W,71.4,2.04,050318,,E*49
$GPGGA,011814.807,4154.901,N,08202.572,W,0,00,,,M,,M,,*57
$GPGLL,4154.901,N,08202.572,W,011815.807,V*36
$GPRMC,011816.807,V,4154.899,N,08202.572,W,31.2,2.01,050318,,E*4B
$GPGGA,011817.807,4154.899,N,08202.572,W,0,00,,,M,,M,,*54
$GPGLL,4154.899,N,08202.572,W,011818.807,V*3B
$GPRMC,011819.807,V,4154.898,N,08202.572,W,20.9,2.02,050318,,E*4D
$GPGGA,011820.807,4154.898,N,08202.572,W,0,00,,,M,,M,,*51
$GPGLL,4154.898,N,08202.572,W,011821.807,V*30
$GPRMC,011822.807,V,4154.896,N,08202.572,W,7.3,2.06,050318,,E*70
$GPGGA,011823.807,4154.896,N,08202.572,W,0,00,,,M,,M,,*5C
$GPGLL,4154.896,N,08202.572,W,011824.807,V*3B
$GPRMC,011825.807,V,4154.894,N,08202.572,W,28.3,2.10,050318,,E*4F
$GPGGA,011826.807,4154.894,N,08202.572,W,0,00,,,M,,M,,*5B
$GPGLL,4154.894,N,08202.572,W,011827.807,V*3A
$GPRMC,011828.807,V,4154.892,N,08202.573,W,44.4,2.17,050318,,E*4F
$GPGGA,011829.807,4154.892,N,08202.573,W,0,00,,,M,,M,,*53
$GPGLL,4154.892,N,08202.573,W,011830.807,V*3B
$GPRMC,011831.807,V,4154.891,N,08202.573,W,73.3,2.21,050318,,E*42
$GPGGA,011832.807,4154.891,N,08202.573,W,0,00,,,M,,M,,*5A
$GPGLL,4154.891,N,08202.573,W,011833.807,V*3B
$GPRMC,011834.807,V,4154.889,N,08202.573,W,51.4,1.73,050318,,E*4D
$GPGGA,011835.807,4154.889,N,08202.573,W,0,00,,,M,,M,,*54
$GPGLL,4154.889,N,08202.573,W,011836.807,V*37
$GPRMC,011837.807,V,4154.887,N,08202.572,W,15.5,1.64,050318,,E*46
$GPGGA,011838.807,4154.887,N,08202.572,W,0,00,,,M,,M,,*56
$GPGLL,4154.887,N,08202.572,W,011839.807,V*37
$GPRMC,011840.807,V,4154.886,N,08202.572,W,24.4,1.96,050318,,E*49
$GPGGA,011841.807,4154.886,N,08202.572,W,0,00,,,M,,M,,*59
$GPGLL,4154.886,N,08202.572,W,011842.807,V*3A
$GPRMC,011843.807,V,4154.884,N,08202.571,W,54.2,1.86,050318,,E*4B
$GPGGA,011844.807,4154.884,N,08202.571,W,0,00,,,M,,M,,*5D
$GPGLL,4154.884,N,08202.571,W,011845.807,V*3C
$GPRMC,011846.807,V,4154.882,N,08202.571,W,10.7,1.81,050318,,E*4A
$GPGGA,011847.807,4154.882,N,08202.571,W,0,00,,,M,,M,,*58
$GPGLL,4154.882,N,08202.571,W,011848.807,V*37
$GPRMC,011849.807,V,4154.880,N,08202.570,W,6.7,1.81,050318,,E*71
$GPGGA,011850.807,4154.880,N,08202.570,W,0,00,,,M,,M,,*5D
$GPGLL,4154.880,N,08202.570,W,011851.807,V*3C
$GPRMC,011852.807,V,4154.879,N,08202.570,W,8.3,1.85,050318,,E*73
$GPGGA,011853.807,4154.879,N,08202.570,W,0,00,,,M,,M,,*58
$GPGLL,4154.879,N,08202.570,W,011854.807,V*3F
$GPRMC,011855.807,V,4154.877,N,08202.570,W,89.0,1.95,050318,,E*41
$GPGGA,011856.807,4154.877,N,08202.570,W,0,00,,,M,,M,,*53
$GPGLL,4154.877,N,08202.570,W,011857.807,V*32
$GPRMC,011858.807,V,4154.875,N,08202.569,W,73.0,1.87,050318,,E*40
$GPGGA,011859.807,4154.875,N,08202.569,W,0,00,,,M,,M,,*56
$GPGLL,4154.875,N,08202.569,W,011900.807,V*3B
$GPRMC,011901.807,V,4154.873,N,08202.569,W,49.2,1.81,050318,,E*46
$GPGGA,011902.807,4154.873,N,08202.569,W,0,00,,,M,,M,,*5F
$GPGLL,4154.873,N,08202.569,W,011903.807,V*3E
$GPRMC,011904.807,V,4154.872,N,08202.568,W,55.0,1.82,050318,,E*4F
$GPGGA,011905.807,4154.872,N,08202.568,W,0,00,,,M,,M,,*58
$GPGLL,4154.872,N,08202.568,W,011906.807,V*3B
$GPRMC,011907.807,V,4154.870,N,08202.567,W,40.1,1.74,050318,,E*4D
$GPGGA,011908.807,4154.870,N,08202.567,W,0,00,,,M,,M,,*58
$GPGLL,4154.870,N,08202.567,W,011909.807,V*39
$GPRMC,011910.807,V,4154.868,N,08202.567,W,89.0,1.83,050318,,E*4E
$GPGGA,011911.807,4154.868,N,08202.567,W,0,00,,,M,,M,,*59
$GPGLL,4154.868,N,08202.567,W,011912.807,V*3A
$GPRMC,011913.807,V,4154.867,N,08202.567,W,68.5,1.87,050318,,E*4C
$GPGGA,011914.807,4154.867,N,08202.567,W,0,00,,,M,,M,,*53
$GPGLL,4154.867,N,08202.567,W,011915.807,V*32
$GPRMC,011916.807,V,4154.865,N,08202.566,W,76.1,1.90,050318,,E*47
$GPGGA,011917.807,4154.865,N,08202.566,W,0,00,,,M,,M,,*53
$GPGLL,4154.865,N,08202.566,W,011918.807,V*3C
$GPRMC,011919.807,V,4154.863,N,08202.566,W,34.8,1.79,050318,,E*46
$GPGGA,011920.807,4154.863,N,08202.566,W,0,00,,,M,,M,,*51
$GPGLL,4154.863,N,08202.566,W,011921.807,V*30
$GPRMC,011922.807,V,4154.861,N,08202.565,W,87.8,1.78,050318,,E*46
$GPGGA,011923.807,4154.861,N,08202.565,W,0,00,,,M,,M,,*53
$GPGLL,4154.861,N,08202.565,W,011924.807,V*34
$GPRMC,011925.807,V,4154.860,N,08202.565,W,54.1,1.82,050318,,E*42
$GPGGA,011926.807,4154.860,N,08202.565,W,0,00,,,M,,M,,*57
$GPGLL,4154.860,N,08202.565,W,011927.807,V*36
$GPRMC,011928.807,V,4154.858,N,08202.564,W,68.4,1.89,050318,,E*44
$GPGGA,011929.807,4154.858,N,08202.564,W,0,00,,,M,,M,,*52
$GPGLL,4154.858,N,08202.564,W,011930.807,V*3A
$GPRMC,011931.807,V,4154.856,N,08202.564,W,17.9,1.87,050318,,E*49
$GPGGA,011932.807,4154.856,N,08202.564,W,0,00,,,M,,M,,*56
$GPGLL,4154.856,N,08202.564,W,011933.807,V*37
$GPRMC,011934.807,V,4154.854,N,08202.564,W,53.6,1.96,050318,,E*41
$GPGGA,011935.807,4154.854,N,08202.564,W,0,00,,,M,,M,,*53
$GPGLL,4154.854,N,08202.564,W,011936.807,V*30
$GPRMC,011937.807,V,4154.853,N,08202.564,W,14.0,1.93,050318,,E*45
$GPGGA,011938.807,4154.853,N,08202.564,W,0,00,,,M,,M,,*59
$GPGLL,4154.853,N,08202.564,W,011939.807,V*38
$GPRMC,011940.807,V,4154.851,N,08202.564,W,89.7,1.95,050318,,E*42
$GPGGA,011941.807,4154.851,N,08202.564,W,0,00,,,M,,M,,*55
$GPGLL,4154.851,N,08202.564,W,011942.807,V*36
$GPRMC,011943.807,V,4154.849,N,08202.563,W,83.6,1.89,050318,,E*49
$GPGGA,011944.807,4154.849,N,08202.563,W,0,00,,,M,,M,,*5E
$GPGLL,4154.849,N,08202.563,W,011945.807,V*3F
$GPRMC,011946.807,V,4154.847,N,08202.563,W,77.7,2.00,050318,,E*4A
$GPGGA,011947.807,4154.847,N,08202.563,W,0,00,,,M,,M,,*53
$GPGLL,4154.847,N,08202.563,W,011948.807,V*3C
$GPRMC,011949.807,V,4154.845,N,08202.564,W,48.7,2.11,050318,,E*4C
$GPGGA,011950.807,4154.845,N,08202.564,W,0,00,,,M,,M,,*50
$GPGLL,4154.845,N,08202.564,W,011951.807,V*31
$GPRMC,011952.807,V,4154.844,N,08202.564,W,46.9,2.01,050318,,E*46
$GPGGA,011953.807,4154.844,N,08202.564,W,0,00,,,M,,M,,*52
$GPGLL,4154.844,N,08202.564,W,011954.807,V*35
$GPRMC,011955.807,V,4154.842,N,08202.563,W,87.0,1.90,050318,,E*4F
$GPGGA,011956.807,4154.842,N,08202.563,W,0,00,,,M,,M,,*56
$GPGLL,4154.842,N,08202.563,W,011957.807,V*37
$GPRMC,011958.807,V,4154.840,N,08202.563,W,9.3,1.92,050318,,E*77
$GPGGA,011959.807,4154.840,N,08202.563,W,0,00,,,M,,M,,*5B
$GPGLL,4154.840,N,08202.563,W,012000.807,V*3D
$GPRMC,012001.807,V,4154.838,N,08202.563,W,84.3,1.81,050318,,E*49
$GPGGA,012002.807,4154.838,N,08202.563,W,0,00,,,M,,M,,*50
$GPGLL,4154.838,N,08202.563,W,012003.807,V*31
$GPRMC,012004.807,V,4154.837,N,08202.562,W,63.1,1.91,050318,,E*48
$GPGGA,012005.807,4154.837,N,08202.562,W,0,00,,,M,,M,,*59
$GPGLL,4154.837,N,08202.562,W,012006.807,V*3A
$GPRMC,012007.807,V,4154.835,N,08202.562,W,73.2,1.86,050318,,E*4D
$GPGGA,012008.807,4154.835,N,08202.562,W,0,00,,,M,,M,,*56
$GPGLL,4154.835,N,08202.562,W,012009.807,V*37
$GPRMC,012010.807,V,4154.833,N,08202.561,W,37.1,1.78,050318,,E*4C
$GPGGA,012011.807,4154.833,N,08202.561,W,0,00,,,M,,M,,*5B
$GPGLL,4154.833,N,08202.561,W,012012.807,V*38
$GPRMC,012013.807,V,4154.832,N,08202.560,W,25.9,1.40,050318,,E*4F
$GPGGA,012014.807,4154.832,N,08202.560,W,0,00,,,M,,M,,*5E
$GPGLL,4154.832,N,08202.560,W,012015.807,V*3F
$GPRMC,012016.807,V,4154.831,N,08202.559,W,78.9,1.51,050318,,E*4B
$GPGGA,012017.807,4154.831,N,08202.559,W,0,00,,,M,,M,,*54
$GPGLL,4154.831,N,08202.559,W,012018.807,V*3B
$GPRMC,012019.807,V,4154.830,N,08202.557,W,40.6,1.41,050318,,E*4E
$GPGGA,012020.807,4154.830,N,08202.557,W,0,00,,,M,,M,,*5F
$GPGLL,4154.830,N,08202.557,W,012021.807,V*3E
$GPRMC,012022.807,V,4154.828,N,08202.556,W,2.6,1.47,050318,,E*7E
$GPGGA,012023.807,4154.828,N,08202.556,W,0,00,,,M,,M,,*54
$GPGLL,4154.828,N,08202.556,W,012024.807,V*33
$GPRMC,012025.807,V,4154.827,N,08202.555,W,26.6,1.53,050318,,E*46
$GPGGA,012026.807,4154.827,N,08202.555,W,0,00,,,M,,M,,*5D
$GPGLL,4154.827,N,08202.555,W,012027.807,V*3C
$GPRMC,012028.807,V,4154.826,N,08202.554,W,74.2,1.59,050318,,E*42
$GPGGA,012029.807,4154.826,N,08202.554,W,0,00,,,M,,M,,*52
$GPGLL,4154.826,N,08202.554,W,012030.807,V*3A
$GPRMC,012031.807,V,4154.824,N,08202.552,W,18.8,1.53,050318,,E*44
$GPGGA,012032.807,4154.824,N,08202.552,W,0,00,,,M,,M,,*5C
$GPGLL,4154.824,N,08202.552,W,012033.807,V*3D
$GPRMC,012034.807,V,4154.823,N,08202.551,W,37.5,1.61,050318,,E*44
$GPGGA,012035.807,4154.823,N,08202.551,W,0,00,,,M,,M,,*5F
$GPGLL,4154.823,N,08202.551,W,012036.807,V*3C
$GPRMC,012037.807,V,4154.822,N,08202.550,W,53.4,1.50,050318,,E*46
$GPGGA,012038.807,4154.822,N,08202.550,W,0,00,,,M,,M,,*52
$GPGLL,4154.822,N,08202.550,W,012039.807,V*33
$GPRMC,012040.807,V,4154.821,N,08202.548,W,5.8,1.11,050318,,E*76
$GPGGA,012041.807,4154.821,N,08202.548,W,0,00,,,M,,M,,*56
$GPGLL,4154.821,N,08202.548,W,012042.807,V*35
$GPRMC,012043.807,V,4154.821,N,08202.547,W,81.6,1.21,050318,,E*4B
$GPGGA,012044.807,4154.821,N,08202.547,W,0,00,,,M,,M,,*5C
$GPGLL,4154.821,N,08202.547,W,012045.807,V*3D
